City_ID,City,Country,Lat,Lng,Max Temp,Humidity,Cloudiness,Wind Speed,Current Description
0,kodiak,US,57.79,-152.4072,36.91,93,100,8.05,mist
1,kapaa,US,22.0752,-159.319,81.12,67,0,1.01,clear sky
2,butaritari,KI,3.0707,172.7902,81.79,78,100,16.22,light rain
3,nishihara,JP,26.1842,127.7558,69.08,88,75,21.85,broken clouds
4,buala,SB,-8.145,159.5921,80.04,84,100,10.2,light rain
5,hobart,AU,-42.8794,147.3294,60.66,75,40,17.27,light rain
6,sangar,RU,63.9242,127.4739,-33.93,99,24,2.24,few clouds
7,hurghada,EG,27.2574,33.8129,57.24,67,0,0.0,clear sky
8,ushuaia,AR,-54.8,-68.3,42.46,65,75,24.16,broken clouds
9,vuktyl,RU,63.8567,57.3094,14.88,97,99,5.26,overcast clouds
10,tasiilaq,GL,65.6145,-37.6368,14.16,80,95,5.39,overcast clouds
11,poum,NC,-20.2333,164.0167,80.15,73,0,0.45,clear sky
12,saint-philippe,RE,-21.3585,55.7679,80.19,95,100,34.02,heavy intensity rain
13,katsuura,JP,35.1333,140.3,47.19,47,100,5.73,overcast clouds
14,babu,CN,24.4167,111.5167,39.78,90,98,5.95,overcast clouds
15,santo antonio do ica,BR,-3.1022,-67.9397,73.81,97,100,2.64,overcast clouds
16,jamestown,US,42.097,-79.2353,40.32,65,100,5.01,overcast clouds
17,bredasdorp,ZA,-34.5322,20.0403,63.72,82,0,3.44,clear sky
18,hilo,US,19.7297,-155.09,80.33,71,75,10.36,broken clouds
19,great yarmouth,GB,52.6083,1.7305,48.31,94,100,10.07,overcast clouds
20,charagua,BO,-19.8,-63.2167,75.34,57,0,7.4,clear sky
21,mar del plata,AR,-38.0023,-57.5575,71.62,83,75,5.75,light rain
22,carutapera,BR,-1.195,-46.02,76.44,91,100,6.35,overcast clouds
23,bluff,NZ,-46.6,168.3333,58.8,65,100,17.09,overcast clouds
24,ponta do sol,PT,32.6667,-17.1,66.7,78,99,8.79,overcast clouds
25,bilma,NE,18.6853,12.9164,55.54,25,0,15.23,clear sky
26,atuona,PF,-9.8,-139.0333,78.24,77,100,14.65,light rain
27,esperance,AU,-33.8667,121.9,69.64,53,6,15.5,clear sky
28,anadyr,RU,64.75,177.4833,19.9,53,0,26.84,clear sky
29,provideniya,RU,64.3833,-173.3,10.51,72,75,31.32,broken clouds
30,norman wells,CA,65.282,-126.8329,-21.96,63,75,8.05,broken clouds
31,rikitea,PF,-23.1203,-134.9692,78.6,73,84,7.74,light rain
32,new norfolk,AU,-42.7826,147.0587,60.3,62,99,3.0,light rain
33,buenos aires,AR,-34.6132,-58.3772,82.96,61,0,6.91,clear sky
34,upington,ZA,-28.4478,21.2561,71.98,94,75,1.14,broken clouds
35,phalombe,MW,-15.8064,35.6507,66.02,88,96,0.85,overcast clouds
36,khandyga,RU,62.6667,135.6,-29.65,96,100,1.63,overcast clouds
37,havoysund,NO,70.9963,24.6622,20.28,86,94,9.6,overcast clouds
38,barrow,US,71.2906,-156.7887,-20.18,76,75,0.0,haze
39,cabo san lucas,MX,22.8909,-109.9124,72.7,67,75,13.8,broken clouds
40,grootfontein,NA,-19.5667,18.1167,66.99,39,3,11.18,clear sky
41,cotonou,BJ,6.3654,2.4183,80.58,83,70,9.22,dust
42,puerto ayora,EC,-0.7393,-90.3518,75.54,93,0,1.99,clear sky
43,faanui,PF,-16.4833,-151.75,81.21,75,14,20.09,few clouds
44,bardiyah,LY,31.7561,25.0865,52.36,70,83,16.33,broken clouds
45,mahon,ES,39.8885,4.2658,46.96,93,0,6.91,clear sky
46,dickinson,US,29.4608,-95.0513,70.2,94,100,1.01,mist
47,ankang,CN,32.68,109.0172,33.66,64,100,2.06,overcast clouds
48,san juan,AR,-31.5375,-68.5364,82.89,39,88,7.36,overcast clouds
49,san juan de uraba,CO,8.7592,-76.5297,77.65,86,5,7.05,clear sky
50,castro,BR,-24.7911,-50.0119,63.57,96,1,6.29,clear sky
51,punta arenas,CL,-53.15,-70.9167,48.31,71,75,3.44,broken clouds
52,tilichiki,RU,60.4667,166.1,4.32,81,72,10.2,broken clouds
53,torbay,CA,47.6666,-52.7314,22.57,89,20,16.11,few clouds
54,souillac,MU,-20.5167,57.5167,80.98,89,75,29.93,light intensity shower rain
55,sakakah,SA,29.9697,40.2064,49.57,44,100,7.92,overcast clouds
56,tuktoyaktuk,CA,69.4541,-133.0374,-22.0,76,75,12.66,light snow
57,cape town,ZA,-33.9258,18.4232,66.11,90,75,1.01,broken clouds
58,agadir,MA,30.4202,-9.5982,57.65,40,5,1.39,clear sky
59,severo-kurilsk,RU,50.6789,156.125,30.67,76,100,10.07,overcast clouds
60,mataura,NZ,-46.1927,168.8643,58.48,91,100,3.62,light rain
61,ilulissat,GL,69.2167,-51.1,-0.38,46,100,24.16,light shower snow
62,carnarvon,AU,-24.8667,113.6333,82.47,78,6,10.36,clear sky
63,lebu,CL,-37.6167,-73.65,60.15,88,81,10.4,broken clouds
64,rundu,NA,-17.9333,19.7667,66.45,66,72,1.23,broken clouds
65,nikolskoye,RU,59.7035,30.7861,19.29,99,95,1.63,overcast clouds
66,avarua,CK,-21.2078,-159.775,84.25,79,75,19.57,broken clouds
67,dikson,RU,73.5069,80.5464,-6.81,97,100,12.28,overcast clouds
68,busselton,AU,-33.65,115.3333,76.05,36,53,16.06,broken clouds
69,vaini,TO,-21.2,-175.2,87.96,70,20,6.91,few clouds
70,abonnema,NG,4.7084,6.7931,79.57,76,18,4.83,few clouds
71,mayo,US,38.8876,-76.5119,45.25,85,0,4.61,mist
72,nouadhibou,MR,20.931,-17.0347,71.58,56,0,14.97,sand
73,lima,PE,-12.0432,-77.0282,73.38,82,0,13.8,clear sky
74,pangai,TO,-19.8,-174.35,86.11,62,20,5.75,few clouds
75,upernavik,GL,72.7868,-56.1549,-8.97,67,100,8.77,overcast clouds
76,srednekolymsk,RU,67.45,153.6833,-23.44,98,100,2.1,overcast clouds
77,corrente,BR,-3.7367,-43.3394,74.19,88,86,1.9,overcast clouds
78,hobyo,SO,5.3505,48.5268,77.99,71,100,18.1,overcast clouds
79,hithadhoo,MV,-0.6,73.0833,81.37,70,6,2.71,clear sky
80,muros,ES,42.7762,-9.0603,54.23,88,100,6.42,overcast clouds
81,araouane,ML,18.9048,-3.5265,62.94,15,99,10.16,overcast clouds
82,east london,ZA,-33.0153,27.9116,73.87,94,100,8.77,light rain
83,guanica,PR,17.9716,-66.908,79.02,81,6,8.99,clear sky
84,la ronge,CA,55.1001,-105.2842,-16.38,69,0,4.61,clear sky
85,laguna,US,38.421,-121.4238,61.09,28,0,7.0,clear sky
86,luganville,VU,-15.5333,167.1667,85.6,72,100,5.23,overcast clouds
87,albany,US,42.6001,-73.9662,41.58,77,100,3.38,overcast clouds
88,port alfred,ZA,-33.5906,26.891,73.54,92,100,8.9,overcast clouds
89,fortuna,US,40.5982,-124.1573,55.47,80,0,1.99,clear sky
90,avera,US,33.194,-82.5271,63.91,81,100,6.46,overcast clouds
91,coihaique,CL,-45.5752,-72.0662,62.55,63,75,5.75,broken clouds
92,trige,DK,56.2529,10.1484,42.44,93,100,11.83,overcast clouds
93,thompson,CA,55.7435,-97.8558,-9.24,59,20,14.97,few clouds
94,mae ramat,TH,16.984,98.5166,61.12,56,12,1.07,few clouds
95,ylivieska,FI,64.0833,24.55,10.31,99,70,2.39,broken clouds
96,oranjestad,AW,12.524,-70.027,78.75,83,20,18.41,few clouds
97,karratha,AU,-20.7377,116.8463,86.38,61,14,8.19,few clouds
98,shimoda,JP,34.6667,138.95,50.36,52,79,23.49,broken clouds
99,aleksandrovsk-sakhalinskiy,RU,50.8975,142.1561,5.83,90,100,10.8,light snow
100,arlit,NE,18.7369,7.3853,60.37,16,0,12.33,clear sky
101,novyy urgal,RU,51.0736,132.5642,-16.58,97,99,0.81,overcast clouds
102,udachnyy,RU,66.4167,112.4,-33.65,100,50,2.39,scattered clouds
103,axim,GH,4.8699,-2.2405,78.3,85,97,5.73,light rain
104,koygorodok,RU,60.445,50.9968,20.52,93,100,7.58,overcast clouds
105,aswan,EG,24.0934,32.907,56.5,35,0,0.0,clear sky
106,seymchan,RU,62.8833,152.4333,-13.18,95,100,1.41,overcast clouds
107,kumo,NG,10.0447,11.2122,66.9,21,5,11.25,clear sky
108,palic,RS,46.1023,19.7635,38.89,73,6,21.88,clear sky
109,vilhena,BR,-12.7406,-60.1458,68.94,97,100,1.74,overcast clouds
110,hermanus,ZA,-34.4187,19.2345,65.89,86,0,10.85,clear sky
111,sisimiut,GL,66.9395,-53.6735,1.36,75,100,20.02,overcast clouds
112,cheremukhovo,RU,60.3484,59.9851,8.33,96,100,3.87,overcast clouds
113,wilmington,US,34.2257,-77.9447,52.95,80,100,8.05,overcast clouds
114,roma,US,43.2128,-75.4557,41.95,69,0,5.75,clear sky
115,yellowknife,CA,62.456,-114.3525,-24.45,76,20,4.61,few clouds
116,nuuk,GL,64.1835,-51.7216,11.01,61,75,10.36,broken clouds
117,someshwar,IN,13.5,75.0667,72.77,87,0,2.98,clear sky
118,mitu,CO,1.1983,-70.1733,75.85,74,38,2.3,scattered clouds
119,laramie,US,41.3114,-105.5911,2.03,71,40,6.91,scattered clouds
120,bonavista,CA,48.6499,-53.1147,23.11,75,22,20.15,few clouds
121,forestville,US,38.8451,-76.875,44.98,79,40,5.75,scattered clouds
122,kaseda,JP,31.4167,130.3167,40.23,73,100,12.84,overcast clouds
123,tiksi,RU,71.6872,128.8694,-3.91,94,100,9.55,overcast clouds
124,saskylakh,RU,71.9167,114.0833,-31.61,100,17,2.82,few clouds
125,veraval,IN,20.9,70.3667,71.4,82,78,13.47,broken clouds
126,wonthaggi,AU,-38.6044,145.5913,66.06,65,100,17.36,overcast clouds
127,ostrovnoy,RU,68.0531,39.5131,20.43,90,100,15.08,light snow
128,znamenskoye,RU,57.1281,73.8282,17.94,94,100,7.74,light snow
129,lasa,IT,46.6166,10.7002,40.08,94,47,8.05,scattered clouds
130,bambous virieux,MU,-20.3428,57.7575,80.85,89,75,29.93,light intensity shower rain
131,honningsvag,NO,70.9821,25.9704,26.62,76,100,9.64,overcast clouds
132,camacha,PT,33.0833,-16.3333,62.53,88,40,13.8,scattered clouds
133,pevek,RU,69.7008,170.3133,-6.63,74,0,4.12,clear sky
134,caohai,CN,26.8661,104.2841,25.75,90,100,0.38,overcast clouds
135,hofn,IS,64.2539,-15.2082,30.47,56,100,7.34,overcast clouds
136,sao felix do xingu,BR,-6.6447,-51.995,71.62,97,40,1.83,scattered clouds
137,nara,JP,34.6851,135.8049,43.88,62,100,8.57,overcast clouds
138,port elizabeth,ZA,-33.918,25.5701,71.1,94,75,11.5,broken clouds
139,petropavlovsk-kamchatskiy,RU,53.0452,158.6483,28.99,69,75,4.47,broken clouds
140,kavieng,PG,-2.5744,150.7967,79.7,81,100,15.64,light rain
141,hambantota,LK,6.1241,81.1185,68.34,100,20,2.3,few clouds
142,ipixuna,BR,-1.7625,-48.8043,78.75,98,84,3.38,broken clouds
143,goderich,CA,43.7501,-81.7165,26.91,100,100,10.36,snow
144,linares,CL,-35.85,-71.6,62.55,57,0,2.26,clear sky
145,diapaga,BF,12.0708,1.7889,67.95,11,5,6.87,clear sky
146,lahij,YE,13.1667,44.5833,70.18,85,100,5.99,overcast clouds
147,bethel,US,41.3712,-73.414,40.41,84,100,0.0,overcast clouds
148,maralal,KE,1.0968,36.698,59.13,72,100,4.12,overcast clouds
149,yumen,CN,40.2833,97.2,19.08,46,49,8.14,scattered clouds
150,faya,SA,18.3851,42.4509,53.71,69,42,1.07,scattered clouds
151,aksarka,RU,66.5606,67.7975,3.24,98,100,3.24,overcast clouds
152,kabalo,CD,-6.05,26.9167,68.72,96,100,1.92,overcast clouds
153,bijie,CN,27.3125,105.2942,29.7,87,96,1.72,overcast clouds
154,kasempa,ZM,-13.4584,25.8338,64.31,92,100,3.47,overcast clouds
155,khatanga,RU,71.9667,102.5,-36.22,99,36,2.19,scattered clouds
156,bonthe,SL,7.5264,-12.505,76.59,91,15,4.16,few clouds
157,mugumu,TZ,-1.85,34.7,60.62,92,98,3.8,overcast clouds
158,mamlyutka,KZ,54.9375,68.5394,14.52,96,96,7.09,overcast clouds
159,airai,TL,-8.9266,125.4092,66.76,77,99,3.47,overcast clouds
160,saint anthony,US,45.0205,-93.218,3.92,59,0,5.99,clear sky
161,chokurdakh,RU,70.6333,147.9167,-20.83,98,100,6.96,overcast clouds
162,vale da amoreira,PT,39.0697,-7.6985,43.03,68,100,4.38,overcast clouds
163,opunake,NZ,-39.4556,173.8583,71.62,70,100,16.06,overcast clouds
164,kasongo-lunda,CD,-6.4667,16.8167,69.42,97,100,0.87,overcast clouds
165,marsh harbour,BS,26.5412,-77.0636,71.08,69,46,19.77,scattered clouds
166,matara,LK,5.9485,80.5353,71.22,88,12,6.26,few clouds
167,fairbanks,US,64.8378,-147.7164,-11.02,72,0,0.0,clear sky
168,grand-lahou,CI,5.1367,-5.0242,78.58,85,6,6.13,clear sky
169,sao joao dos patos,BR,-6.495,-43.7022,75.92,64,60,1.5,broken clouds
170,kloulklubed,PW,7.0419,134.2556,82.9,76,100,18.45,overcast clouds
171,vardo,NO,70.3705,31.1107,29.46,57,100,18.79,light snow
172,mahebourg,MU,-20.4081,57.7,80.89,89,75,29.93,light intensity shower rain
173,puerto madryn,AR,-42.7692,-65.0385,72.91,46,92,9.71,overcast clouds
174,pawai,IN,24.2667,80.1667,57.16,60,0,6.15,clear sky
175,chadan,RU,51.2833,91.5833,-22.58,96,82,1.32,broken clouds
176,hammerfest,NO,70.6634,23.6821,19.85,68,100,5.75,overcast clouds
177,ribeira grande,PT,38.5167,-28.7,59.43,71,16,7.23,few clouds
178,georgetown,MY,5.4112,100.3354,80.53,92,20,0.0,few clouds
179,emerald,AU,-23.5333,148.1667,83.34,78,75,8.05,broken clouds
180,smirnykh,RU,49.75,142.8333,8.64,72,100,8.16,overcast clouds
181,tuatapere,NZ,-46.1333,167.6833,58.82,71,100,9.22,overcast clouds
182,victoria,HK,22.2855,114.1577,56.25,89,100,8.99,overcast clouds
183,la peca,PE,-5.6111,-78.435,69.93,74,98,3.33,overcast clouds
184,sao marcos,BR,-28.9711,-51.0681,69.06,89,0,5.86,clear sky
185,kurchum,KZ,48.5722,83.6542,-14.75,94,11,1.01,few clouds
186,rocha,UY,-34.4833,-54.3333,68.29,89,0,9.55,clear sky
187,sao filipe,CV,14.8961,-24.4956,73.69,75,0,12.21,clear sky
188,pechora,RU,65.1472,57.2244,15.03,95,99,7.76,overcast clouds
189,kailua,US,21.4022,-157.7394,82.38,65,3,4.0,clear sky
190,pareora,NZ,-44.4871,171.2132,62.19,97,100,8.28,light rain
191,aripuana,BR,-9.1667,-60.6333,72.99,97,100,1.83,overcast clouds
192,archidona,ES,37.0965,-4.3887,52.36,41,100,3.71,overcast clouds
193,walvis bay,NA,-22.9575,14.5053,68.09,79,0,8.14,clear sky
194,tessalit,ML,20.1986,1.0114,59.86,15,7,11.05,clear sky
195,samarai,PG,-10.6167,150.6667,84.88,65,100,7.47,overcast clouds
196,chase,CA,50.8165,-119.6857,21.07,96,100,3.15,light snow
197,klaksvik,FO,62.2266,-6.589,38.32,76,100,10.94,overcast clouds
198,two hills,CA,53.7169,-111.7518,-8.52,84,100,14.97,overcast clouds
199,lorengau,PG,-2.0226,147.2712,77.83,87,100,9.64,overcast clouds
200,pasighat,IN,28.0667,95.3333,53.28,70,66,4.05,broken clouds
201,namibe,AO,-15.1961,12.1522,71.64,73,72,8.93,broken clouds
202,maumere,ID,-8.6199,122.2111,82.53,73,100,1.61,overcast clouds
203,dingle,PH,10.9995,122.6711,80.74,78,70,13.09,broken clouds
204,kaitangata,NZ,-46.2817,169.8464,54.25,95,100,3.04,overcast clouds
205,nanortalik,GL,60.1432,-45.2371,13.33,61,100,9.84,overcast clouds
206,bubaque,GW,11.2833,-15.8333,77.81,82,32,5.59,scattered clouds
207,shache,CN,38.4167,77.2406,34.72,42,100,1.23,overcast clouds
208,sale,MA,34.0389,-6.8166,48.22,100,100,3.44,overcast clouds
209,saint-joseph,RE,-21.3667,55.6167,79.18,93,100,32.26,heavy intensity rain
210,akyab,MM,20.15,92.9,61.93,70,4,6.67,clear sky
211,meulaboh,ID,4.1363,96.1285,77.05,83,61,2.95,broken clouds
212,mafinga,TZ,-7.25,35.0667,64.45,97,100,3.02,overcast clouds
213,lakatoro,VU,-16.0999,167.4164,85.39,71,67,6.42,broken clouds
214,suihua,CN,46.6406,126.9969,-7.08,96,66,3.76,broken clouds
215,lompoc,US,34.6391,-120.4579,64.71,35,0,14.97,clear sky
216,salalah,OM,17.0151,54.0924,77.09,20,0,9.22,clear sky
217,trinidad,BO,-14.8333,-64.9,74.08,96,20,4.14,few clouds
218,chuy,UY,-33.6971,-53.4616,71.13,86,0,11.63,clear sky
219,qaanaaq,GL,77.484,-69.3632,-10.7,83,100,6.93,overcast clouds
220,nouakchott,MR,18.0858,-15.9785,80.53,28,0,11.18,clear sky
221,kidal,ML,18.4411,1.4078,62.74,15,6,12.57,clear sky
222,ancud,CL,-41.8697,-73.8203,60.42,89,75,3.2,broken clouds
223,nizwa,OM,22.9333,57.5333,63.03,63,0,6.44,clear sky
224,constitucion,CL,-35.3333,-72.4167,58.12,87,69,5.48,broken clouds
225,sao jose da coroa grande,BR,-8.8978,-35.1478,79.59,75,53,8.86,broken clouds
226,alofi,NU,-19.0595,-169.9187,78.69,89,75,6.91,light intensity shower rain
227,jibuti,DJ,11.5,42.5,72.82,81,99,9.82,overcast clouds
228,monte alegre de minas,BR,-18.8706,-48.8808,70.45,89,100,5.19,overcast clouds
229,bengkulu,ID,-3.8004,102.2655,78.35,80,75,3.91,broken clouds
230,batsfjord,NO,70.6345,29.7185,22.91,73,100,7.94,overcast clouds
231,kotido,UG,2.9806,34.1331,73.22,49,98,5.55,overcast clouds
232,port macquarie,AU,-31.4333,152.9167,68.9,95,100,13.13,light rain
233,iqaluit,CA,63.7506,-68.5145,6.53,84,75,10.0,light snow
234,payson,US,40.0444,-111.7321,26.35,61,40,17.27,scattered clouds
235,aykhal,RU,66.0,111.5,-21.35,100,6,2.89,clear sky
236,sinnamary,GF,5.3833,-52.95,78.13,82,100,11.12,overcast clouds
237,tynda,RU,55.1667,124.7167,-15.54,84,59,4.92,broken clouds
238,ust-barguzin,RU,53.45,108.9833,-11.02,97,98,4.76,overcast clouds
239,ciudad bolivar,VE,8.1222,-63.5497,85.53,48,100,14.97,overcast clouds
240,pangnirtung,CA,66.1451,-65.7125,4.78,86,100,7.23,overcast clouds
241,mudgee,AU,-32.5943,149.5871,69.85,68,100,4.61,overcast clouds
242,ketchikan,US,55.3422,-131.6461,39.18,93,100,5.75,mist
243,port hueneme,US,34.1478,-119.1951,65.32,20,0,17.27,clear sky
244,pontianak,ID,-0.0333,109.3333,75.18,100,40,0.0,scattered clouds
245,nome,US,64.5011,-165.4064,10.47,53,0,31.07,clear sky
246,sri aman,MY,1.2376,111.4621,77.09,94,20,0.0,few clouds
247,hervey bay,AU,-25.2986,152.8535,85.03,81,100,5.01,overcast clouds
248,saint-pierre,RE,-21.3393,55.4781,80.28,83,75,34.52,light rain
249,tucuma,BR,-0.1833,-50.05,75.15,95,100,5.26,overcast clouds
250,uyuni,BO,-20.4597,-66.825,55.56,54,3,3.85,clear sky
251,abu samrah,SY,35.3029,37.1841,47.57,54,100,11.41,overcast clouds
252,longyearbyen,SJ,78.2186,15.6401,13.84,73,0,20.71,clear sky
253,sitka,US,57.0531,-135.33,39.09,93,100,5.75,mist
254,almonte,ES,37.2647,-6.5167,52.45,58,36,4.63,scattered clouds
255,port lincoln,AU,-34.7333,135.8667,65.19,58,75,15.64,broken clouds
256,colares,PT,38.7992,-9.4469,56.34,72,100,1.01,overcast clouds
257,karpogory,RU,64.0019,44.4451,12.92,98,100,1.81,overcast clouds
258,shambu,ET,9.5667,37.1,57.38,58,100,1.41,overcast clouds
259,santa cruz de la palma,ES,28.6835,-17.7642,68.14,88,75,9.22,broken clouds
260,kosh-agach,RU,50.0,88.6667,-20.76,99,92,2.86,overcast clouds
261,finschhafen,PG,-6.6024,147.8681,82.02,79,100,13.06,overcast clouds
262,cidreira,BR,-30.1811,-50.2056,75.49,86,5,18.97,clear sky
263,honiara,SB,-9.4333,159.95,82.02,84,100,6.42,overcast clouds
264,roebourne,AU,-20.7833,117.1333,86.52,59,55,12.84,broken clouds
265,tromso,NO,69.6496,18.957,15.82,79,0,5.75,clear sky
266,polyarnyy,RU,69.1989,33.4478,3.67,96,100,4.47,light snow
267,narsaq,GL,60.9167,-46.05,5.22,61,100,12.15,overcast clouds
268,xining,CN,36.6167,101.7667,11.35,62,6,1.97,clear sky
269,rochegda,RU,62.8,43.25,10.35,98,100,1.59,overcast clouds
270,san patricio,US,28.017,-97.5169,73.81,83,100,5.95,overcast clouds
271,luderitz,NA,-26.6481,15.1594,67.66,79,66,2.98,broken clouds
272,andenes,NO,69.3143,16.1194,22.98,63,5,18.41,clear sky
273,coquimbo,CL,-29.9533,-71.3436,63.5,82,6,5.48,clear sky
274,naze,JP,28.3667,129.4833,54.52,85,100,23.44,overcast clouds
275,aklavik,CA,68.2191,-135.0107,-23.8,76,40,3.44,scattered clouds
276,mujiayingzi,CN,42.1167,118.7833,7.92,64,0,5.48,clear sky
277,yerbogachen,RU,61.2767,108.0108,-3.33,99,99,4.21,overcast clouds
278,jamame,SO,0.0722,42.7506,77.14,87,100,9.51,overcast clouds
279,riyadh,SA,24.6877,46.7219,51.94,38,0,4.5,clear sky
280,lazarev,RU,52.225,141.5131,2.79,78,100,13.67,overcast clouds
281,calvinia,ZA,-31.4707,19.776,58.44,83,76,7.49,broken clouds
282,hirara,JP,24.8,125.2833,68.27,88,75,9.22,broken clouds
283,ballina,AU,-28.8667,153.5667,75.16,96,75,8.05,broken clouds
284,boden,SE,65.8252,21.6886,6.8,97,100,3.89,overcast clouds
285,ballater,GB,57.0493,-3.0402,49.3,86,100,7.78,overcast clouds
286,aguimes,ES,27.9054,-15.4461,68.67,60,20,17.27,few clouds
287,cianorte,BR,-23.6633,-52.605,71.74,96,29,5.14,scattered clouds
288,cooma,AU,-36.2333,149.1333,58.77,58,40,12.66,scattered clouds
289,skjervoy,NO,70.0311,20.9714,24.06,68,100,19.86,overcast clouds
290,tautira,PF,-17.7333,-149.15,89.62,78,24,20.2,light rain
291,kabankalan,PH,9.9889,122.8122,81.66,73,81,7.49,broken clouds
292,pravia,ES,43.4906,-6.1508,50.29,71,0,8.05,clear sky
293,najran,SA,17.4924,44.1277,54.25,41,71,1.9,broken clouds
294,quevedo,EC,-1.0333,-79.45,74.86,91,90,3.89,moderate rain
295,arraial do cabo,BR,-22.9661,-42.0278,75.25,88,100,4.25,overcast clouds
296,hailey,US,43.5196,-114.3153,14.9,71,0,5.75,clear sky
297,dhidhdhoo,MV,6.8833,73.1,81.14,68,22,8.55,few clouds
298,zastron,ZA,-30.3023,27.084,66.15,72,95,5.73,light rain
299,arman,RU,59.7,150.1667,12.36,79,100,10.85,overcast clouds
300,rabo de peixe,PT,37.8,-25.5833,58.28,94,20,6.91,few clouds
301,kieta,PG,-6.2167,155.6333,84.45,73,100,14.56,light rain
302,cockburn town,TC,21.4612,-71.1419,73.15,84,100,21.21,overcast clouds
303,kalmunai,LK,7.4167,81.8167,75.16,72,67,2.71,broken clouds
304,suoyarvi,RU,62.0833,32.35,-1.75,99,98,2.84,overcast clouds
305,ostersund,SE,63.1792,14.6357,7.25,85,20,2.3,few clouds
306,warrnambool,AU,-38.3833,142.4833,62.82,62,100,16.69,overcast clouds
307,takestan,IR,36.0696,49.6959,34.48,55,16,1.43,few clouds
308,santo tomas,PH,14.1079,121.1414,80.56,76,71,8.99,broken clouds
309,kirovskaya,RU,46.9748,40.0402,42.98,83,100,13.6,overcast clouds
310,tawala,PH,9.5542,123.7696,79.32,79,100,11.45,overcast clouds
311,naliya,IN,23.2667,68.8333,65.95,51,5,12.12,clear sky
312,majene,ID,-3.5403,118.9707,81.81,74,100,2.21,overcast clouds
313,port keats,AU,-14.25,129.55,85.42,68,90,12.41,overcast clouds
314,alice springs,AU,-23.7,133.8833,67.55,68,100,14.97,overcast clouds
315,mangrol,IN,21.1167,70.1167,71.28,83,72,13.35,broken clouds
316,port-gentil,GA,-0.7193,8.7815,79.68,81,100,10.83,moderate rain
317,homer,US,59.6425,-151.5483,32.77,82,0,5.75,clear sky
318,adrar,MR,20.5022,-10.0711,66.22,20,0,10.65,clear sky
319,lawrenceville,US,33.9562,-83.988,51.1,67,100,6.91,moderate rain
320,port blair,IN,11.6667,92.75,73.44,88,20,0.0,mist
321,cartagena,CO,10.3997,-75.5144,80.22,78,0,8.05,clear sky
322,guayaramerin,BO,-10.8368,-65.3614,73.26,95,40,3.04,scattered clouds
323,vera cruz,BR,-12.6333,-41.0333,70.27,76,0,3.15,clear sky
324,sola,VU,-13.8833,167.55,81.57,75,100,9.28,overcast clouds
325,waipawa,NZ,-41.4122,175.5153,72.23,58,100,11.77,overcast clouds
326,harper,LR,4.375,-7.7169,78.91,81,6,4.83,clear sky
327,ahipara,NZ,-35.1667,173.1667,76.35,63,67,14.52,broken clouds
328,ingham,US,42.6,-84.3833,25.9,92,100,9.22,light snow
329,naron,ES,43.5167,-8.1528,53.02,81,100,6.08,overcast clouds
330,nhulunbuy,AU,-12.2333,136.7667,86.61,74,75,11.5,broken clouds
331,touros,BR,-5.1989,-35.4608,81.5,76,47,11.92,scattered clouds
332,miyang,CN,24.4042,103.4428,42.66,92,100,2.59,overcast clouds
333,eenhana,NA,-17.4667,16.3333,70.21,45,39,9.13,scattered clouds
334,ambon,ID,-3.6954,128.1814,86.14,66,20,4.61,few clouds
335,gizo,SB,-8.103,156.8419,82.26,79,100,15.12,light rain
336,ryotsu,JP,38.0833,138.4333,35.56,81,100,5.88,overcast clouds
337,palmer,US,42.1584,-72.3287,40.73,79,100,0.0,overcast clouds
338,kalemie,CD,-5.9475,29.1947,68.95,90,100,1.01,overcast clouds
339,kjollefjord,NO,70.9457,27.3465,21.63,77,100,8.95,overcast clouds
340,carlsbad,US,33.1581,-117.3506,67.37,15,0,7.0,clear sky
341,quatre cocos,MU,-20.2078,57.7625,80.71,90,100,30.15,moderate rain
342,ratnagiri,IN,16.9833,73.3,67.46,81,5,5.7,clear sky
343,zonguldak,TR,41.25,31.8333,40.23,85,100,6.13,overcast clouds
344,bagdarin,RU,54.4333,113.6,-18.27,94,5,3.67,clear sky
345,sao miguel do iguacu,BR,-25.3481,-54.2378,85.21,66,0,5.75,clear sky
346,paamiut,GL,61.994,-49.6678,14.22,62,100,20.42,overcast clouds
347,muisne,EC,0.6,-80.0333,75.78,89,87,4.47,light rain
348,lipari,IT,38.4674,14.954,57.56,68,0,16.06,clear sky
349,azul,AR,-36.777,-59.8585,68.25,91,100,5.3,overcast clouds
350,katobu,ID,-4.9408,122.5276,82.89,70,100,2.3,overcast clouds
351,thap khlo,TH,16.16,100.5966,81.84,73,25,5.44,scattered clouds
352,tampakan,PH,6.4442,124.9264,74.91,85,100,2.21,overcast clouds
353,bontang,ID,0.1333,117.5,81.27,72,98,9.42,overcast clouds
354,alta floresta,BR,-9.8756,-56.0861,72.12,93,62,2.46,broken clouds
355,suluq,LY,31.6682,20.2521,50.65,71,49,10.92,scattered clouds
356,kashi,CN,39.4547,75.9797,24.01,42,0,8.95,clear sky
357,puerto carreno,CO,6.189,-67.4859,77.85,78,94,3.0,overcast clouds
358,wattegama,LK,6.7989,81.4808,67.12,92,51,3.4,broken clouds
359,taltal,CL,-25.4,-70.4833,68.47,73,0,4.16,clear sky
360,ponnani,IN,10.767,75.9252,76.32,89,2,4.21,clear sky
361,roald,NO,62.5833,6.1333,34.32,69,100,11.5,overcast clouds
362,batemans bay,AU,-35.7167,150.1833,73.2,47,0,9.95,clear sky
363,westport,US,41.1415,-73.3579,41.29,94,75,6.91,fog
364,charters towers,AU,-20.1,146.2667,86.68,62,100,9.37,overcast clouds
365,oistins,BB,13.0667,-59.5333,77.09,78,75,16.11,broken clouds
366,kot diji,PK,27.3427,68.7083,55.42,31,0,14.92,clear sky
367,los pozos,VE,8.4518,-62.7268,83.05,74,7,10.8,clear sky
368,frome,GB,51.2283,-2.3221,48.11,85,100,6.04,overcast clouds
369,namatanai,PG,-3.6667,152.4333,78.94,83,100,8.68,light rain
370,sorland,NO,67.667,12.6934,27.81,58,100,11.34,overcast clouds
371,espirito santo do pinhal,BR,-22.1158,-46.6828,68.72,96,100,3.67,overcast clouds
372,whithorn,JM,18.2604,-78.0378,76.26,90,1,1.28,clear sky
373,jumla,NP,29.2747,82.1838,34.7,83,86,5.14,overcast clouds
374,verkhnyaya inta,RU,65.9811,60.3094,12.51,96,100,4.61,overcast clouds
375,hualmay,PE,-11.0964,-77.6139,70.79,79,64,10.36,broken clouds
376,gari,RU,59.4307,62.3497,14.23,95,100,8.19,overcast clouds
377,necochea,AR,-38.5473,-58.7368,73.04,75,100,13.38,moderate rain
378,berlevag,NO,70.8578,29.0864,26.55,71,100,12.97,light snow
379,sobolevo,RU,54.4299,31.8996,24.19,97,100,5.86,snow
380,kawalu,ID,-7.3817,108.2082,79.47,75,35,1.66,scattered clouds
381,torit,SS,4.4133,32.5678,79.0,32,100,1.39,overcast clouds
382,nueva rosita,MX,27.95,-101.2167,57.92,66,98,18.92,overcast clouds
383,long,TH,18.0761,99.8326,70.39,49,5,1.61,clear sky
384,new richmond,US,45.123,-92.5366,4.68,55,0,6.91,clear sky
385,qarqin,AF,37.4185,66.0436,43.65,81,6,7.36,clear sky
386,lakhnadon,IN,22.6,79.6,58.24,48,0,5.64,clear sky
387,clyde river,CA,70.4692,-68.5914,-16.37,76,100,11.5,light snow
388,bairiki,KI,1.3292,172.9752,84.2,84,40,4.61,light rain
389,carndonagh,IE,55.25,-7.2667,48.34,85,100,13.2,overcast clouds
390,guerrero negro,MX,27.9769,-114.0611,63.34,37,0,15.1,clear sky
391,askino,RU,56.0901,56.5783,26.92,95,100,16.87,snow
392,kadhan,PK,24.481,68.9859,64.0,27,5,8.95,clear sky
393,santa cruz,BO,-17.8,-63.1667,80.06,83,50,6.91,scattered clouds
394,kuching,MY,1.55,110.3333,79.02,89,20,1.14,few clouds
395,bonfim,BR,3.0833,-59.95,81.54,58,37,8.34,scattered clouds
396,dunedin,NZ,-45.8742,170.5036,54.7,92,100,7.05,overcast clouds
397,rodna,RO,47.4167,24.8167,23.38,97,83,2.53,broken clouds
398,hajnowka,PL,52.7433,23.5812,29.01,82,91,5.01,overcast clouds
399,saldanha,ZA,-33.0117,17.9442,64.45,90,0,8.08,clear sky
400,mana,GF,5.6592,-53.7767,77.99,82,100,10.54,overcast clouds
401,ulaangom,MN,49.9811,92.0667,-20.18,89,100,1.7,overcast clouds
402,sovetskiy,RU,61.3614,63.5842,7.27,100,99,4.07,overcast clouds
403,port hardy,CA,50.6996,-127.4199,37.58,93,100,11.5,light rain
404,sol-iletsk,RU,51.1631,54.9918,17.62,95,100,8.41,overcast clouds
405,taunggyi,MM,20.7833,97.0333,48.97,63,0,1.59,clear sky
406,dudinka,RU,69.4058,86.1778,-11.43,100,100,5.99,overcast clouds
407,broken hill,AU,-31.95,141.4333,64.11,42,0,26.46,clear sky
408,huancavelica,PE,-12.7667,-74.9833,40.46,93,100,3.2,overcast clouds
409,labytnangi,RU,66.6572,66.4183,-2.09,99,100,3.76,overcast clouds
410,sao miguel do araguaia,BR,-13.275,-50.1628,73.83,89,62,1.36,broken clouds
411,petrozavodsk,RU,61.7849,34.3469,-9.94,84,98,0.0,overcast clouds
412,virginia beach,US,36.8529,-75.978,45.05,94,100,5.75,mist
413,flinders,AU,-34.5833,150.8552,73.18,65,56,15.99,broken clouds
414,abu kamal,SY,34.4506,40.9171,50.02,51,100,9.44,overcast clouds
415,beyneu,KZ,45.3167,55.2,33.39,84,100,14.45,overcast clouds
416,nyuksenitsa,RU,60.4128,44.2397,18.68,95,98,6.13,overcast clouds
417,horsham,GB,51.064,-0.3272,48.47,71,75,5.75,broken clouds
418,athabasca,CA,54.7169,-113.2854,-7.19,89,100,9.51,overcast clouds
419,ayan,RU,56.45,138.1667,-3.01,65,100,16.42,overcast clouds
420,tambacounda,SN,13.7539,-13.7586,78.85,15,0,6.91,clear sky
421,lewiston,US,44.1003,-70.2148,40.35,94,100,4.61,overcast clouds
422,abengourou,CI,6.7297,-3.4964,63.82,26,6,2.42,clear sky
423,thinadhoo,MV,0.5333,72.9333,82.0,71,0,5.01,clear sky
424,kyren,RU,51.6828,102.1408,0.34,85,99,1.12,overcast clouds
425,lavrentiya,RU,65.5833,-171.0,2.82,63,1,22.62,clear sky
426,san antonio,US,29.4241,-98.4936,55.15,81,100,3.0,overcast clouds
427,turukhansk,RU,65.8167,87.9833,-9.98,99,40,6.87,scattered clouds
428,codrington,AU,-38.2667,141.9667,60.64,62,100,15.82,overcast clouds
429,maturin,VE,9.75,-63.1767,74.28,81,0,7.2,clear sky
430,nador,MA,35.174,-2.9287,50.25,66,0,3.44,clear sky
431,fergus falls,US,46.283,-96.0776,-8.14,70,0,6.91,clear sky
432,campos,BR,-21.75,-41.3,73.09,94,100,6.38,overcast clouds
433,nicholasville,US,37.8806,-84.573,48.09,86,100,14.97,overcast clouds
434,san quintin,MX,30.4833,-115.95,59.23,61,0,8.88,clear sky
435,beloha,MG,-25.1667,45.05,70.05,79,0,12.8,clear sky
436,channel-port aux basques,CA,47.5702,-59.1367,29.23,80,94,18.61,overcast clouds
437,ahuimanu,US,21.4447,-157.8378,82.11,62,40,4.0,scattered clouds
438,zachepylivka,UA,49.1939,35.2394,32.99,98,100,3.85,overcast clouds
439,vostok,RU,46.4856,135.8833,0.57,86,100,5.41,overcast clouds
440,vaitape,PF,-16.5167,-151.75,81.19,75,15,20.09,few clouds
441,narodychi,UA,51.2029,29.0823,31.66,94,98,6.93,overcast clouds
442,bay roberts,CA,47.5999,-53.2648,23.32,85,24,5.01,few clouds
443,barreirinhas,BR,-2.7469,-42.8264,78.64,79,100,7.58,overcast clouds
444,mongo,TD,12.1844,18.693,65.3,13,7,6.49,clear sky
445,haines junction,CA,60.7522,-137.5108,-2.25,65,100,5.75,overcast clouds
446,kahului,US,20.8947,-156.47,84.22,66,20,14.97,few clouds
447,porto novo,BJ,6.4965,2.6036,80.42,79,9,6.49,clear sky
448,nadvoitsy,RU,63.8667,34.3167,6.87,97,97,3.96,overcast clouds
449,koumra,TD,8.9126,17.5539,72.9,16,71,7.54,broken clouds
450,valera,VE,9.3178,-70.6036,72.05,66,5,5.03,clear sky
451,rawlins,US,41.7911,-107.2387,10.29,52,0,4.61,clear sky
452,sibu,MY,2.3,111.8167,77.31,94,20,1.99,few clouds
453,oksfjord,NO,70.2396,22.3479,20.32,91,100,10.13,overcast clouds
454,kiruna,SE,67.8557,20.2251,2.32,85,100,0.0,overcast clouds
455,galdar,ES,28.147,-15.6502,70.36,83,100,11.1,overcast clouds
456,khakhea,BW,-24.6895,23.494,71.71,75,4,8.25,light rain
457,mount isa,AU,-20.7333,139.5,80.37,78,100,14.97,overcast clouds
458,san lorenzo,PY,-25.3333,-57.5333,92.34,38,20,8.05,few clouds
459,tuy hoa,VN,13.0833,109.3,74.07,88,95,8.12,overcast clouds
460,nioro,GM,13.35,-15.75,74.97,58,25,5.14,scattered clouds
461,koslan,RU,63.4564,48.8989,21.69,97,100,4.05,light snow
462,winona,US,43.9666,-91.7668,8.44,56,0,10.36,clear sky
463,jalu,LY,29.0331,21.5482,51.31,60,17,20.02,few clouds
464,morecambe,GB,54.0684,-2.8611,48.51,97,100,8.01,overcast clouds
465,lamu,KE,-2.2717,40.902,79.02,90,100,9.93,overcast clouds
466,lagoa,PT,39.05,-27.9833,57.83,72,1,5.08,clear sky
467,dwarahat,IN,29.7833,79.4333,41.58,83,100,4.88,overcast clouds
468,grindavik,IS,63.8424,-22.4338,23.47,93,20,2.3,few clouds
469,ustka,PL,54.5805,16.8619,31.93,83,28,8.14,scattered clouds
470,geghamasar,AM,40.3109,45.6792,18.18,63,91,2.24,overcast clouds
471,esna,EG,25.2934,32.554,53.62,34,0,3.91,clear sky
472,padang,ID,-0.9492,100.3543,75.25,80,70,3.44,broken clouds
473,teguise,ES,29.0605,-13.564,66.42,52,0,9.22,clear sky
474,lakota,CI,5.8528,-5.6883,70.54,97,60,2.21,broken clouds
475,nabire,ID,-3.3667,135.4833,83.59,71,100,3.11,overcast clouds
476,dailly,CH,46.2,7.0333,41.36,96,98,4.23,overcast clouds
477,tevaitoa,PF,-16.7833,-151.5,81.23,76,43,21.47,scattered clouds
478,rawson,AR,-43.3002,-65.1023,68.34,54,99,10.2,overcast clouds
479,launceston,AU,-41.45,147.1667,63.61,47,100,5.99,overcast clouds
480,vila franca do campo,PT,37.7167,-25.4333,59.2,81,35,8.84,scattered clouds
481,uvira,CD,-3.4067,29.1458,71.87,89,100,0.6,light rain
482,broome,US,42.2506,-75.833,39.92,71,40,1.99,scattered clouds
483,havre-saint-pierre,CA,50.2334,-63.5986,28.4,86,100,11.5,overcast clouds
484,yakeshi,CN,49.2833,120.7333,-22.68,100,98,3.62,overcast clouds
485,cayenne,GF,4.9333,-52.3333,78.1,86,75,5.99,broken clouds
486,cherskiy,RU,68.75,161.3,-15.59,72,58,0.67,broken clouds
487,temirtau,KZ,50.0544,72.9483,1.65,90,100,0.65,overcast clouds
488,taoudenni,ML,22.6783,-3.9836,63.32,21,89,11.36,overcast clouds
489,gwadar,PK,25.1216,62.3254,66.06,30,0,18.41,clear sky
490,nelson bay,AU,-32.7167,152.15,71.96,89,100,3.0,overcast clouds
491,te anau,NZ,-45.4167,167.7167,60.4,87,100,3.65,overcast clouds
492,zatoka,UA,46.0725,30.4654,30.74,76,100,4.72,overcast clouds
493,mayumba,GA,-3.432,10.6554,77.25,87,100,5.64,light rain
494,troitskoye,RU,52.9821,84.6757,-3.51,100,90,1.99,overcast clouds
495,pisco,PE,-13.7,-76.2167,71.65,68,0,17.27,clear sky
496,praya,CV,14.9215,-23.5087,72.14,68,3,23.02,clear sky
497,rypefjord,NO,70.6333,23.6667,19.87,68,100,5.75,overcast clouds
498,isangel,VU,-19.55,169.2667,87.91,79,75,5.75,broken clouds
499,lerik,AZ,38.7726,48.4128,31.64,44,100,9.86,overcast clouds
500,kyra,RU,49.5776,111.9753,-11.43,90,10,4.81,clear sky
501,korla,CN,41.7597,86.1469,22.05,56,7,7.36,clear sky
502,wallacetown,NZ,-46.3333,168.2667,59.02,70,100,10.92,overcast clouds
503,libourne,FR,44.9167,-0.25,47.21,94,10,6.62,clear sky
504,ozernovskiy,RU,51.5,156.5167,28.56,74,100,6.64,overcast clouds
505,ust-nera,RU,64.5667,143.2,-12.57,99,100,2.68,overcast clouds
506,rajula,IN,21.05,71.4333,65.93,70,8,8.3,clear sky
507,inirida,CO,3.8653,-67.9239,77.58,75,37,1.77,scattered clouds
508,maceio,BR,-9.6658,-35.7353,80.04,83,0,3.44,clear sky
509,parana,AR,-31.732,-60.5238,79.47,83,63,2.64,broken clouds
510,druzhnaya gorka,RU,59.2761,30.1425,16.88,99,96,2.98,light snow
511,mlonggo,ID,-6.5333,110.7,84.09,82,92,4.27,overcast clouds
512,rio gallegos,AR,-51.6226,-69.2181,55.45,62,75,9.22,broken clouds
513,winnemucca,US,40.973,-117.7357,35.65,32,0,6.91,clear sky
514,maun,BW,-19.9833,23.4167,70.07,79,9,5.75,clear sky
515,coolum beach,AU,-26.5333,153.1,82.22,81,100,8.39,overcast clouds
516,kaili,ID,-3.4626,120.2147,72.43,84,100,1.19,overcast clouds
517,santa cruz de tenerife,ES,28.4682,-16.2546,73.6,70,100,4.0,light rain
518,san carlos de bariloche,AR,-41.1456,-71.3082,69.55,46,40,10.36,scattered clouds
519,lafia,NG,8.4833,8.5167,77.09,18,5,4.27,clear sky
520,vao,NC,-22.6667,167.4833,78.37,71,100,9.89,overcast clouds
521,altus,US,34.6381,-99.334,22.51,88,100,4.0,snow
522,jojoima,SL,7.8792,-10.7878,66.38,54,1,0.25,clear sky
523,half moon bay,US,37.4636,-122.4286,63.39,45,0,1.99,clear sky
524,pestretsy,RU,55.7531,49.6545,26.74,98,100,3.36,snow
525,hasaki,JP,35.7333,140.8333,36.0,42,100,8.97,overcast clouds
526,hovd,MN,48.0056,91.6419,-6.83,97,89,1.81,overcast clouds
527,palana,RU,59.1167,159.9667,12.36,85,100,14.34,overcast clouds
528,kununurra,AU,-15.7667,128.7333,82.38,74,75,9.22,broken clouds
529,show low,US,34.2542,-110.0298,28.11,81,75,6.91,broken clouds
530,synya,RU,65.3718,58.0387,15.76,94,99,7.83,overcast clouds
531,bilibino,RU,68.0546,166.4372,-3.57,66,0,4.99,clear sky
532,nanzhang,CN,31.7765,111.8386,39.2,44,99,0.85,overcast clouds
533,noumea,NC,-22.2763,166.4572,87.78,63,67,9.6,broken clouds
534,iralaya,HN,15.0,-83.2333,76.55,80,1,6.46,clear sky
535,snasa,NO,64.2457,12.3778,10.67,95,100,5.57,overcast clouds
536,baturaja,ID,-4.1333,104.1667,76.59,89,87,2.26,overcast clouds
